{
"type": "FeatureCollection",
"crs": { "type": "name", "properties": { "name": "urn:ogc:def:crs:OGC:1.3:CRS84" } },
"features": [
{ "type": "Feature", "properties": { "OBJECTID": 1, "NAME": "District Health Center #3", "CITY": "Philadelphia", "STATE": "PA", "ZIP": 19104, "PHONE": "215-685-7504", "PHONE2": null, "SPECIAL_FOCUS": null, "SPECIAL_HOURS": null, "FULL_ADDRESS": "555 South 43rd Street", "GlobalID": "b00f278d-b160-4341-a3b9-1e7a6b4e75a1" }, "geometry": { "type": "Point", "coordinates": [ -75.209061148292903, 39.948773378584555 ] } },
{ "type": "Feature", "properties": { "OBJECTID": 2, "NAME": "District Health Center #4", "CITY": "Philadelphia", "STATE": "PA", "ZIP": 19104, "PHONE": "215-685-7600", "PHONE2": null, "SPECIAL_FOCUS": null, "SPECIAL_HOURS": null, "FULL_ADDRESS": "4400 Haverford Avenue", "GlobalID": "c8195205-24d3-4f78-bcf9-83b5e9691e39" }, "geometry": { "type": "Point", "coordinates": [ -75.21093909601953, 39.962537048619751 ] } },
{ "type": "Feature", "properties": { "OBJECTID": 3, "NAME": "Spectrum Health Services, Inc.", "CITY": "Philadelphia", "STATE": "PA", "ZIP": 19139, "PHONE": "215-471-2761", "PHONE2": null, "SPECIAL_FOCUS": null, "SPECIAL_HOURS": null, "FULL_ADDRESS": "5201 Haverford Avenue", "GlobalID": "f1b15acd-d72c-488c-b2ac-1b6a9304f456" }, "geometry": { "type": "Point", "coordinates": [ -75.225194232697675, 39.96527346674074 ] } },
{ "type": "Feature", "properties": { "OBJECTID": 4, "NAME": "The Health Annex", "CITY": "Philadelphia", "STATE": "PA", "ZIP": 19142, "PHONE": "215-727-4721", "PHONE2": null, "SPECIAL_FOCUS": null, "SPECIAL_HOURS": null, "FULL_ADDRESS": "6120-B Woodland Avenue 2nd Floor", "GlobalID": "0ff8d8e1-6ab4-438e-9f55-6801dcdd279c" }, "geometry": { "type": "Point", "coordinates": [ -75.22969854363528, 39.928761952622807 ] } },
{ "type": "Feature", "properties": { "OBJECTID": 5, "NAME": "The MacGregor Clinic at the Hospital of the University of Pennsylvania", "CITY": "Philadelphia", "STATE": "PA", "ZIP": 19104, "PHONE": "215-662-6932", "PHONE2": null, "SPECIAL_FOCUS": null, "SPECIAL_HOURS": null, "FULL_ADDRESS": "3400 Spruce Street Silverstein Pavilion 3rd Floor", "GlobalID": "893b7389-a695-4a65-bb58-826109035858" }, "geometry": { "type": "Point", "coordinates": [ -75.19345004265179, 39.950497459640964 ] } },
{ "type": "Feature", "properties": { "OBJECTID": 6, "NAME": "Penn Community Practice", "CITY": "Philadelphia", "STATE": "PA", "ZIP": 19104, "PHONE": "215-662-9908", "PHONE2": null, "SPECIAL_FOCUS": null, "SPECIAL_HOURS": null, "FULL_ADDRESS": "3910 Powelton Avenue 2nd Floor", "GlobalID": "076d0c46-847d-43f4-8e51-294f58a944cc" }, "geometry": { "type": "Point", "coordinates": [ -75.200509067539116, 39.959233489141489 ] } },
{ "type": "Feature", "properties": { "OBJECTID": 7, "NAME": "Woodland Avenue Health Center", "CITY": "Philadelphia", "STATE": "PA", "ZIP": 19143, "PHONE": "215-726-9807", "PHONE2": null, "SPECIAL_FOCUS": null, "SPECIAL_HOURS": null, "FULL_ADDRESS": "5000 Woodland Avenue", "GlobalID": "719d471d-da15-41ac-b46c-ab5b52445472" }, "geometry": { "type": "Point", "coordinates": [ -75.214512434727482, 39.939426241328363 ] } },
{ "type": "Feature", "properties": { "OBJECTID": 8, "NAME": "Abbottsford Falls", "CITY": "Philadelphia", "STATE": "PA", "ZIP": 19144, "PHONE": "215-843-9720", "PHONE2": null, "SPECIAL_FOCUS": null, "SPECIAL_HOURS": null, "FULL_ADDRESS": "4700 Wissahickon Avenue Suite 119", "GlobalID": "16a931ce-53fe-4ebd-bf57-318f818175dc" }, "geometry": { "type": "Point", "coordinates": [ -75.171510130508963, 40.016826796254215 ] } },
{ "type": "Feature", "properties": { "OBJECTID": 9, "NAME": "District Health Center #9", "CITY": "Philadelphia", "STATE": "PA", "ZIP": 19144, "PHONE": "215-685-5702", "PHONE2": null, "SPECIAL_FOCUS": null, "SPECIAL_HOURS": null, "FULL_ADDRESS": "131 East Chelten Avenue", "GlobalID": "848ad08d-a160-4914-84d9-c0da2cd50216" }, "geometry": { "type": "Point", "coordinates": [ -75.172740289036568, 40.037870438777105 ] } },
{ "type": "Feature", "properties": { "OBJECTID": 10, "NAME": "Albert Einstein Medical Center", "CITY": "Philadelphia", "STATE": "PA", "ZIP": 19141, "PHONE": "215-456-3465", "PHONE2": null, "SPECIAL_FOCUS": null, "SPECIAL_HOURS": null, "FULL_ADDRESS": "5501 Old York Road", "GlobalID": "1d952b97-e724-4ad5-b2de-16581d004bb9" }, "geometry": { "type": "Point", "coordinates": [ -75.144581300458455, 40.036928529250538 ] } },
{ "type": "Feature", "properties": { "OBJECTID": 11, "NAME": "Partnership Comprehensive Care Practice at the Drexel University School of Medicine", "CITY": "Philadelphia", "STATE": "PA", "ZIP": 19102, "PHONE": "215-762-02530", "PHONE2": null, "SPECIAL_FOCUS": null, "SPECIAL_HOURS": null, "FULL_ADDRESS": "1427 Vine Street 2nd Floor", "GlobalID": "850c738f-8020-4021-a7ab-3d5e244f4565" }, "geometry": { "type": "Point", "coordinates": [ -75.163628118967921, 39.95827893336449 ] } },
{ "type": "Feature", "properties": { "OBJECTID": 12, "NAME": "Jefferson University Infectious Diseases", "CITY": "Philadelphia", "STATE": "PA", "ZIP": 19107, "PHONE": "215-955-7785", "PHONE2": null, "SPECIAL_FOCUS": null, "SPECIAL_HOURS": null, "FULL_ADDRESS": "1015 Chestnut Street Suite 1020", "GlobalID": "a2497c0a-24b0-4ba5-8ef0-cfc56a29e968" }, "geometry": { "type": "Point", "coordinates": [ -75.157720226459944, 39.950128657147587 ] } },
{ "type": "Feature", "properties": { "OBJECTID": 13, "NAME": "The Childrens Hospital of Philadelphia Adolescent Initiative", "CITY": "Philadelphia", "STATE": "PA", "ZIP": 19104, "PHONE": "215-590-3626", "PHONE2": null, "SPECIAL_FOCUS": "Patients 12 to 24 years of age", "SPECIAL_HOURS": null, "FULL_ADDRESS": "3550 Market Street 4th Floor", "GlobalID": "70cbf50f-a866-4c64-b1b6-3d13a61de67b" }, "geometry": { "type": "Point", "coordinates": [ -75.193841710750064, 39.956061111766182 ] } },
{ "type": "Feature", "properties": { "OBJECTID": 14, "NAME": "The Childrens Hospital of Philadelphia Special Immunology Family Care Center", "CITY": "Philadelphia", "STATE": "PA", "ZIP": 19104, "PHONE": "215-590-2956", "PHONE2": null, "SPECIAL_FOCUS": "Patients 0 to 24 years of age", "SPECIAL_HOURS": null, "FULL_ADDRESS": "3550 Market Street 5th Floor", "GlobalID": "58b4ee84-c41d-4879-a157-2129bb636af4" }, "geometry": { "type": "Point", "coordinates": [ -75.193841710750064, 39.956061111766182 ] } },
{ "type": "Feature", "properties": { "OBJECTID": 15, "NAME": "Dorothy Mann Center for Pediatric and Adolescent HIV at St. Christophers Hospital for Children", "CITY": "Philadelphia", "STATE": "PA", "ZIP": 19134, "PHONE": "215-427-5284", "PHONE2": null, "SPECIAL_FOCUS": "Patients 0 to 24 years of age", "SPECIAL_HOURS": null, "FULL_ADDRESS": "160 East Erie Avenue", "GlobalID": "e3a6aeea-babd-4aa5-8b7d-9b285837f448" }, "geometry": { "type": "Point", "coordinates": [ -75.126022096810033, 40.007490125352952 ] } },
{ "type": "Feature", "properties": { "OBJECTID": 16, "NAME": "Mazzoni Center Family and Community Medicine", "CITY": "Philadelphia", "STATE": "PA", "ZIP": 19107, "PHONE": "215-563-0658", "PHONE2": null, "SPECIAL_FOCUS": "Patients 12 to 24 years of age", "SPECIAL_HOURS": "Youth Drop-in only on Wednesdays from 5pm to 7pm", "FULL_ADDRESS": "809 Locust Street", "GlobalID": "15c5d427-a560-4746-9e22-2d08ea524a2d" }, "geometry": { "type": "Point", "coordinates": [ -75.155022202048769, 39.9470545837275 ] } },
{ "type": "Feature", "properties": { "OBJECTID": 17, "NAME": "Johnathan Lax Treatment Center", "CITY": "Philadelphia", "STATE": "PA", "ZIP": 19107, "PHONE": "215-790-1788", "PHONE2": null, "SPECIAL_FOCUS": null, "SPECIAL_HOURS": null, "FULL_ADDRESS": "1233 Locust Street Suite 500", "GlobalID": "e4ccb043-eacf-4e97-b6bf-dde6a5120d89" }, "geometry": { "type": "Point", "coordinates": [ -75.161794292558824, 39.947904329423928 ] } },
{ "type": "Feature", "properties": { "OBJECTID": 18, "NAME": "J. Edwin Wood Clinic at Pennsylvania Hospital", "CITY": "Philadelphia", "STATE": "PA", "ZIP": 19106, "PHONE": "215-829-3521", "PHONE2": null, "SPECIAL_FOCUS": null, "SPECIAL_HOURS": null, "FULL_ADDRESS": "700 Spruce Street Suite 300", "GlobalID": "771a0c72-a66f-468a-8750-2e8b433d6004" }, "geometry": { "type": "Point", "coordinates": [ -75.153629913361783, 39.945558238879343 ] } },
{ "type": "Feature", "properties": { "OBJECTID": 19, "NAME": "Congreso Health Center", "CITY": "Philadelphia", "STATE": "PA", "ZIP": 19133, "PHONE": "267-765-227", "PHONE2": null, "SPECIAL_FOCUS": null, "SPECIAL_HOURS": null, "FULL_ADDRESS": "216 West Somerset Street 2nd Floor", "GlobalID": "c7fe5f70-f88a-4320-9953-52bb87b7a7ba" }, "geometry": { "type": "Point", "coordinates": [ -75.135391947112623, 39.993058276843257 ] } },
{ "type": "Feature", "properties": { "OBJECTID": 20, "NAME": "Cooke Family Health Center", "CITY": "Philadelphia", "STATE": "PA", "ZIP": 19141, "PHONE": "215-457-6902", "PHONE2": null, "SPECIAL_FOCUS": null, "SPECIAL_HOURS": null, "FULL_ADDRESS": "1300 West Louden Street", "GlobalID": "676c3c22-db38-4bb1-aa5c-d4a8fdae1ec2" }, "geometry": { "type": "Point", "coordinates": [ -75.145412723946478, 40.025825656410831 ] } },
{ "type": "Feature", "properties": { "OBJECTID": 21, "NAME": "District Health Center #5", "CITY": "Philadelphia", "STATE": "PA", "ZIP": 19121, "PHONE": "215-685-2933", "PHONE2": null, "SPECIAL_FOCUS": null, "SPECIAL_HOURS": null, "FULL_ADDRESS": "1900 North 20th Street", "GlobalID": "ac89321e-e68d-49b2-a4bc-dda57337cb2e" }, "geometry": { "type": "Point", "coordinates": [ -75.166769545664735, 39.983102492039031 ] } },
{ "type": "Feature", "properties": { "OBJECTID": 22, "NAME": "District Health Center #6", "CITY": "Philadelphia", "STATE": "PA", "ZIP": 19123, "PHONE": "215-685-3803", "PHONE2": null, "SPECIAL_FOCUS": null, "SPECIAL_HOURS": null, "FULL_ADDRESS": "321 West Girard Avenue", "GlobalID": "fc632c6e-132e-4879-9e37-98260c0ba795" }, "geometry": { "type": "Point", "coordinates": [ -75.141948726194173, 39.969906456038736 ] } },
{ "type": "Feature", "properties": { "OBJECTID": 23, "NAME": "Esperanza Health Center - Hunting Park", "CITY": "Philadelphia", "STATE": "PA", "ZIP": 19140, "PHONE": "215-302-3600", "PHONE2": null, "SPECIAL_FOCUS": null, "SPECIAL_HOURS": null, "FULL_ADDRESS": "4417 North 6th Street", "GlobalID": "5f8cc222-211b-48b6-83ef-39aa90953d47" }, "geometry": { "type": "Point", "coordinates": [ -75.136857887845267, 40.019099095653992 ] } },
{ "type": "Feature", "properties": { "OBJECTID": 24, "NAME": "Esperanza Health Center", "CITY": "Philadelphia", "STATE": "PA", "ZIP": 19134, "PHONE": "215-831-1100", "PHONE2": null, "SPECIAL_FOCUS": null, "SPECIAL_HOURS": null, "FULL_ADDRESS": "3156 Kensington Avenue", "GlobalID": "28d5e491-e187-408a-8191-7d2314333f53" }, "geometry": { "type": "Point", "coordinates": [ -75.114341172134715, 39.996026855271168 ] } },
{ "type": "Feature", "properties": { "OBJECTID": 25, "NAME": "Esperanza Health Center - 5th Street", "CITY": "Philadelphia", "STATE": "PA", "ZIP": 19133, "PHONE": "215-221-6633", "PHONE2": null, "SPECIAL_FOCUS": null, "SPECIAL_HOURS": null, "FULL_ADDRESS": "2940 North 5th Street", "GlobalID": "47ac5f18-eba1-4f60-b112-a523ae9deba8" }, "geometry": { "type": "Point", "coordinates": [ -75.139376226571727, 39.996133781815772 ] } },
{ "type": "Feature", "properties": { "OBJECTID": 26, "NAME": "Fairmount Primary Care Center", "CITY": "Philadelphia", "STATE": "PA", "ZIP": 19130, "PHONE": "215-235-9600", "PHONE2": null, "SPECIAL_FOCUS": null, "SPECIAL_HOURS": null, "FULL_ADDRESS": "1412 Fairmount Avenue", "GlobalID": "10190c66-3fc5-49f7-a377-cea4d72e6151" }, "geometry": { "type": "Point", "coordinates": [ -75.161409268833268, 39.967017829142812 ] } },
{ "type": "Feature", "properties": { "OBJECTID": 27, "NAME": "Kensington Hospital", "CITY": "Philadelphia", "STATE": "PA", "ZIP": 19122, "PHONE": "215-426-8100", "PHONE2": null, "SPECIAL_FOCUS": null, "SPECIAL_HOURS": null, "FULL_ADDRESS": "136 Diamond Street", "GlobalID": "c2cd2307-a815-40d8-8705-7f8c9914f9af" }, "geometry": { "type": "Point", "coordinates": [ -75.134589315663135, 39.981819156553144 ] } },
{ "type": "Feature", "properties": { "OBJECTID": 28, "NAME": "Maria de los Santos Health Center", "CITY": "Philadelphia", "STATE": "PA", "ZIP": 19133, "PHONE": "215-291-2500", "PHONE2": null, "SPECIAL_FOCUS": null, "SPECIAL_HOURS": null, "FULL_ADDRESS": "401-455 West Allegheny Avenue", "GlobalID": "80c78df7-63cc-4154-8857-e1a6b00b6737" }, "geometry": { "type": "Point", "coordinates": [ -75.136456724805129, 39.999535350940711 ] } },
{ "type": "Feature", "properties": { "OBJECTID": 29, "NAME": "Meade Family Health Center", "CITY": "Philadelphia", "STATE": "PA", "ZIP": 19121, "PHONE": "215-765-9501", "PHONE2": null, "SPECIAL_FOCUS": null, "SPECIAL_HOURS": null, "FULL_ADDRESS": "1600 North 18th Street", "GlobalID": "64742904-f56b-46ec-a64f-e7b8503677dd" }, "geometry": { "type": "Point", "coordinates": [ -75.16455458044706, 39.978424736912459 ] } },
{ "type": "Feature", "properties": { "OBJECTID": 30, "NAME": "PHMC Care Clinic", "CITY": "Philadelphia", "STATE": "PA", "ZIP": 19123, "PHONE": "215-825-8220", "PHONE2": null, "SPECIAL_FOCUS": null, "SPECIAL_HOURS": null, "FULL_ADDRESS": "1200 Callowhill Street Suite 101", "GlobalID": "278b457a-571f-48bd-8988-825568d34e93" }, "geometry": { "type": "Point", "coordinates": [ -75.158964060779979, 39.959156206660573 ] } },
{ "type": "Feature", "properties": { "OBJECTID": 31, "NAME": "Quality Community Health Care", "CITY": "Philadelphia", "STATE": "PA", "ZIP": 19132, "PHONE": "215-227-0300", "PHONE2": null, "SPECIAL_FOCUS": null, "SPECIAL_HOURS": null, "FULL_ADDRESS": "2501 West Lehigh Avenue", "GlobalID": "952b3cb2-d6b1-47f2-8ab8-2d2a0f33f210" }, "geometry": { "type": "Point", "coordinates": [ -75.172474268411634, 39.996324716558476 ] } },
{ "type": "Feature", "properties": { "OBJECTID": 32, "NAME": "Strawberry Mansion District Health Center", "CITY": "Philadelphia", "STATE": "PA", "ZIP": 19132, "PHONE": "215-685-2401", "PHONE2": null, "SPECIAL_FOCUS": null, "SPECIAL_HOURS": null, "FULL_ADDRESS": "2840 West Dauphin Street", "GlobalID": "663a92ea-c309-4c4c-b1b3-949112e68acb" }, "geometry": { "type": "Point", "coordinates": [ -75.179069005285967, 39.99083145022918 ] } },
{ "type": "Feature", "properties": { "OBJECTID": 33, "NAME": "Temple University Comprehensive HIV Program", "CITY": "Philadelphia", "STATE": "PA", "ZIP": 19140, "PHONE": "215-707-2401", "PHONE2": null, "SPECIAL_FOCUS": null, "SPECIAL_HOURS": null, "FULL_ADDRESS": "1316 West Ontario Street Jones Hall 1st Floor", "GlobalID": "6a5dd143-0135-428e-8618-2c7fda3e9f40" }, "geometry": { "type": "Point", "coordinates": [ -75.150661668589422, 40.004443829783767 ] } },
{ "type": "Feature", "properties": { "OBJECTID": 34, "NAME": "District Health Center #10", "CITY": "Philadelphia", "STATE": "PA", "ZIP": 19149, "PHONE": "215-685-0639", "PHONE2": null, "SPECIAL_FOCUS": null, "SPECIAL_HOURS": null, "FULL_ADDRESS": "2230 Cottman Avenue", "GlobalID": "7d299573-45d8-4c46-9b70-84220cfc4ab8" }, "geometry": { "type": "Point", "coordinates": [ -75.061285877845464, 40.048356417498603 ] } },
{ "type": "Feature", "properties": { "OBJECTID": 35, "NAME": "Frankford Avenue Health Center", "CITY": "Philadelphia", "STATE": "PA", "ZIP": 19124, "PHONE": "215-744-1302", "PHONE2": "888-296-4742", "SPECIAL_FOCUS": null, "SPECIAL_HOURS": null, "FULL_ADDRESS": "4510 Frankford Avenue", "GlobalID": "22c92e0c-60c9-478e-9d64-cbf101974ea2" }, "geometry": { "type": "Point", "coordinates": [ -75.086133850693045, 40.014214710419623 ] } },
{ "type": "Feature", "properties": { "OBJECTID": 36, "NAME": "District Health Center #2", "CITY": "Philadelphia", "STATE": "PA", "ZIP": 19145, "PHONE": "215-685-1803", "PHONE2": null, "SPECIAL_FOCUS": null, "SPECIAL_HOURS": null, "FULL_ADDRESS": "1900 South Broad Street Constitution Health Plaza", "GlobalID": "138c455c-bd16-420e-b1f7-55bd0a6c5652" }, "geometry": { "type": "Point", "coordinates": [ -75.169329987764911, 39.926635507676181 ] } },
{ "type": "Feature", "properties": { "OBJECTID": 37, "NAME": "Southeast Health Center", "CITY": "Philadelphia", "STATE": "PA", "ZIP": 19147, "PHONE": "215-339-5100", "PHONE2": null, "SPECIAL_FOCUS": null, "SPECIAL_HOURS": null, "FULL_ADDRESS": "800 Washington Avenue", "GlobalID": "be629532-4545-425a-ae73-f00de5ad3907" }, "geometry": { "type": "Point", "coordinates": [ -75.157156569581176, 39.935908703170014 ] } },
{ "type": "Feature", "properties": { "OBJECTID": 38, "NAME": "Urban Solutions", "CITY": "Philadelphia", "STATE": "PA", "ZIP": 19146, "PHONE": "215-755-0700", "PHONE2": null, "SPECIAL_FOCUS": null, "SPECIAL_HOURS": null, "FULL_ADDRESS": "1408 South Broad Street 2nd Floor", "GlobalID": "aa2383c6-772c-44ef-82f2-5a9465e9ffba" }, "geometry": { "type": "Point", "coordinates": [ -75.168028445256397, 39.932627485257399 ] } },
{ "type": "Feature", "properties": { "OBJECTID": 39, "NAME": "Wilson Park Medical Center", "CITY": "Philadelphia", "STATE": "PA", "ZIP": 19145, "PHONE": "215-755-7700", "PHONE2": null, "SPECIAL_FOCUS": null, "SPECIAL_HOURS": null, "FULL_ADDRESS": "2520 Snyder Avenue", "GlobalID": "4406cce6-0bf0-44b9-97c1-5567facc2611" }, "geometry": { "type": "Point", "coordinates": [ -75.188231876775404, 39.926701661331002 ] } }
]
}
